{"type":"FeatureCollection","features":[{"type":"Feature","properties":{"OBJECTID":1,"GIS_ID":"Libr_32","NAME":"Rosedale Library","ADDRESS":"1701 Gales Street NE","PHONE":"(202) 727-5012\r\n","WEB_URL":"http://www.dclibrary.org/rosedale","ADDRESS_ID":307101,"STATUS":"Open","X":401810.05,"Y":136662.58000000002,"LATITUDE":38.89781195,"LONGITUDE":-76.97913403,"WARD":"Ward 6","PSA":"Police Service Area 507"},"geometry":{"type":"Point","coordinates":[-76.97932916027288,38.89786061396116]}},{"type":"Feature","properties":{"OBJECTID":2,"GIS_ID":"Libr_25","NAME":"Georgetown Library","ADDRESS":"3260 R Street NW","PHONE":"(202) 727-0232","WEB_URL":"http://www.dclibrary.org/georgetown","ADDRESS_ID":295142,"STATUS":"Open","X":394275.35000000003,"Y":138398.68,"LATITUDE":38.91343456,"LONGITUDE":-77.06600731,"WARD":"Ward 2","PSA":"Police Service Area 206"},"geometry":{"type":"Point","coordinates":[-77.0660096107547,38.913442017065826]}},{"type":"Feature","properties":{"OBJECTID":3,"GIS_ID":"Libr_26","NAME":"Petworth Library","ADDRESS":"4200 Kansas Avenue NW","PHONE":"(202) 243-1188","WEB_URL":"http://www.dclibrary.org/petworth","ADDRESS_ID":295146,"STATUS":"Open","X":397734.08,"Y":141590.17,"LATITUDE":38.94220022,"LONGITUDE":-77.02613743,"WARD":"Ward 4","PSA":"Police Service Area 404"},"geometry":{"type":"Point","coordinates":[-77.02613971967232,38.94220768517905]}},{"type":"Feature","properties":{"OBJECTID":4,"GIS_ID":"Libr_31","NAME":"Mt. Pleasant Library","ADDRESS":"3160 16th Street NW","PHONE":"(202) 671-3122\r\n202-671-3121\r\n(202) 671-3121","WEB_URL":"http://www.dclibrary.org/mtpleasant","ADDRESS_ID":295138,"STATUS":"Open","X":396779.31,"Y":140288.09,"LATITUDE":38.93046772,"LONGITUDE":-77.0371446,"WARD":"Ward 1","PSA":"Police Service Area 408"},"geometry":{"type":"Point","coordinates":[-77.03714770506679,38.93047455548381]}},{"type":"Feature","properties":{"OBJECTID":5,"GIS_ID":"Libr_28","NAME":"Watha T Daniel Library","ADDRESS":"1630 7th Street NW","PHONE":"(202) 727-1288","WEB_URL":"http://www.dclibrary.org/watha","ADDRESS_ID":308201,"STATUS":"Open","X":398073.03,"Y":138286.68,"LATITUDE":38.91244216,"LONGITUDE":-77.02221836,"WARD":"Ward 6","PSA":"Police Service Area 308"},"geometry":{"type":"Point","coordinates":[-77.02221477293924,38.91246547208591]}},{"type":"Feature","properties":{"OBJECTID":6,"GIS_ID":"Libr_29","NAME":"Deanwood Library","ADDRESS":"1350 49th Street NE","PHONE":"(202) 698-1175","WEB_URL":"http://www.dclibrary.org/deanwood","ADDRESS_ID":307551,"STATUS":"Open","X":405884.39,"Y":137844.91,"LATITUDE":38.90844496,"LONGITUDE":-76.93215558,"WARD":"Ward 7","PSA":"Police Service Area 602"},"geometry":{"type":"Point","coordinates":[-76.93254383419531,38.90847164972695]}},{"type":"Feature","properties":{"OBJECTID":7,"GIS_ID":"Libr_2","NAME":"Benning Library","ADDRESS":"3935 Benning Road NE","PHONE":"(202) 281-2583","WEB_URL":"http://www.dclibrary.org/dorothy","ADDRESS_ID":295144,"STATUS":"Open","X":404530.91000000003,"Y":136260.63,"LATITUDE":38.89418122,"LONGITUDE":-76.94777105,"WARD":"Ward 7","PSA":"Police Service Area 603"},"geometry":{"type":"Point","coordinates":[-76.94777332041986,38.89418867804316]}},{"type":"Feature","properties":{"OBJECTID":8,"GIS_ID":"Libr_3","NAME":"Capitol View Library","ADDRESS":"5001 Central Avenue SE","PHONE":"(202) 645-0755","WEB_URL":"http://www.dclibrary.org/capitolview","ADDRESS_ID":15509,"STATUS":"Open","X":406109.69,"Y":135681.52,"LATITUDE":38.88895483,"LONGITUDE":-76.92957721,"WARD":"Ward 7","PSA":"Police Service Area 604"},"geometry":{"type":"Point","coordinates":[-76.92957946221713,38.88896228629297]}},{"type":"Feature","properties":{"OBJECTID":9,"GIS_ID":"Libr_4","NAME":"Chevy Chase Library","ADDRESS":"5625 Connecticut Avenue NW","PHONE":"(202) 282-0021","WEB_URL":"http://www.dclibrary.org/chevychase","ADDRESS_ID":263960,"STATUS":"Open","X":393460.61,"Y":144186.75,"LATITUDE":38.96556949,"LONGITUDE":-77.07545672,"WARD":"Ward 3","PSA":"Police Service Area 201"},"geometry":{"type":"Point","coordinates":[-77.07545901554556,38.9655769512103]}},{"type":"Feature","properties":{"OBJECTID":10,"GIS_ID":"Libr_5","NAME":"Cleveland Park Library","ADDRESS":"3310 Connecticut Ave NW","PHONE":"(202) 282-3080","WEB_URL":"http://www.dclibrary.org/clevelandpark","ADDRESS_ID":221190,"STATUS":"Open","X":394984.89,"Y":140660.69,"LATITUDE":38.933816,"LONGITUDE":-77.05784299999999,"WARD":"Ward 3","PSA":"Police Service Area 203"},"geometry":{"type":"Point","coordinates":[-77.05784488246694,38.933823288511675]}},{"type":"Feature","properties":{"OBJECTID":11,"GIS_ID":"Libr_7","NAME":"Francis A. Gregory Library","ADDRESS":"3660 Alabama Avenue SE","PHONE":"(202) 698-6373","WEB_URL":"http://www.dclibrary.org/francis","ADDRESS_ID":290019,"STATUS":"Open","X":403974.72000000003,"Y":133006.74,"LATITUDE":38.8648716,"LONGITUDE":-76.95420121,"WARD":"Ward 7","PSA":"Police Service Area 607"},"geometry":{"type":"Point","coordinates":[-76.9539808692407,38.864818789671496]}},{"type":"Feature","properties":{"OBJECTID":12,"GIS_ID":"Libr_8","NAME":"Lamond-Riggs Library","ADDRESS":"5401 South Dakota Avenue NE","PHONE":"(202) 541-6255","WEB_URL":"http://www.dclibrary.org/lamond\r\n","ADDRESS_ID":288645,"STATUS":"Open","X":400036.03,"Y":143024.96,"LATITUDE":38.95512813,"LONGITUDE":-76.99958432,"WARD":"Ward 5","PSA":"Police Service Area 405"},"geometry":{"type":"Point","coordinates":[-76.99958659320963,38.95513559548458]}},{"type":"Feature","properties":{"OBJECTID":13,"GIS_ID":"Libr_9","NAME":"Martin Luther King Jr. Memorial Library","ADDRESS":"901 G Street NW","PHONE":"(202) 727-0321","WEB_URL":"http://www.dclibrary.org/mlk","ADDRESS_ID":239815,"STATUS":"Closed, reopen 2020","X":397851.64,"Y":136760.32,"LATITUDE":38.89869166,"LONGITUDE":-77.02476625,"WARD":"Ward 2","PSA":"Police Service Area 101"},"geometry":{"type":"Point","coordinates":[-77.0247685454895,38.89869911642731]}},{"type":"Feature","properties":{"OBJECTID":14,"GIS_ID":"Libr_10","NAME":"Northeast Library","ADDRESS":"330 7th Street NE","PHONE":"(202) 698-1363","WEB_URL":"http://www.dclibrary.org/northeast","ADDRESS_ID":37106,"STATUS":"Open","X":400315.86,"Y":136284.39,"LATITUDE":38.89440688,"LONGITUDE":-76.99635899,"WARD":"Ward 6","PSA":"Police Service Area 107"},"geometry":{"type":"Point","coordinates":[-76.99636126104126,38.89441433442252]}},{"type":"Feature","properties":{"OBJECTID":15,"GIS_ID":"Libr_11","NAME":"Tenley-Friendship Library","ADDRESS":"4450 Wisconsin Avenue NW","PHONE":"(202) 727-1488","WEB_URL":"http://www.dclibrary.org/tenley","ADDRESS_ID":284921,"STATUS":"Open","X":393074.94,"Y":142193.23,"LATITUDE":38.94760839,"LONGITUDE":-77.07988675,"WARD":"Ward 3","PSA":"Police Service Area 202"},"geometry":{"type":"Point","coordinates":[-77.07988906448986,38.94761584600386]}},{"type":"Feature","properties":{"OBJECTID":16,"GIS_ID":"Libr_12","NAME":"Palisades Library","ADDRESS":"4901 V Street NW","PHONE":"(202) 282-3139","WEB_URL":"http://www.dclibrary.org/palisades","ADDRESS_ID":224474,"STATUS":"Open","X":391572.87,"Y":138950.28,"LATITUDE":38.9183818,"LONGITUDE":-77.09717464,"WARD":"Ward 3","PSA":"Police Service Area 205"},"geometry":{"type":"Point","coordinates":[-77.09717695291295,38.91838925246724]}},{"type":"Feature","properties":{"OBJECTID":17,"GIS_ID":"Libr_14","NAME":"Southeast Library","ADDRESS":"403 7th Street SE","PHONE":"(202) 698-3377","WEB_URL":"http://www.dclibrary.org/southeast","ADDRESS_ID":280068,"STATUS":"Open","X":400302.33,"Y":135138.52,"LATITUDE":38.88408446,"LONGITUDE":-76.99651546,"WARD":"Ward 6","PSA":"Police Service Area 107"},"geometry":{"type":"Point","coordinates":[-76.99651772886935,38.88409190969962]}},{"type":"Feature","properties":{"OBJECTID":18,"GIS_ID":"Libr_15","NAME":"Southwest Library","ADDRESS":"900 Wesley Place SW","PHONE":"(202) 724-4752","WEB_URL":"http://www.dclibrary.org/southwest","ADDRESS_ID":295165,"STATUS":"Open","X":398626.28,"Y":134540.69,"LATITUDE":38.87869795,"LONGITUDE":-77.01583178,"WARD":"Ward 6","PSA":"Police Service Area 105"},"geometry":{"type":"Point","coordinates":[-77.01583405701506,38.87870540219853]}},{"type":"Feature","properties":{"OBJECTID":19,"GIS_ID":"Libr_16","NAME":"Shepherd Park Library","ADDRESS":"7420 Georgia Avenue NW","PHONE":"(202) 541-6100","WEB_URL":"http://www.dclibrary.org/juanita","ADDRESS_ID":253522,"STATUS":"Open","X":397657.48,"Y":145817.5,"LATITUDE":38.98028088,"LONGITUDE":-77.02703545,"WARD":"Ward 4","PSA":"Police Service Area 401"},"geometry":{"type":"Point","coordinates":[-77.02703773413945,38.98028835407077]}},{"type":"Feature","properties":{"OBJECTID":20,"GIS_ID":"Libr_17","NAME":"Takoma Park Library","ADDRESS":"416 Cedar Street NW","PHONE":"(202) 576-7252","WEB_URL":"http://www.dclibrary.org/takomapark","ADDRESS_ID":251267,"STATUS":"Open","X":398253.34,"Y":145168.59,"LATITUDE":38.97443675,"LONGITUDE":-77.02015687,"WARD":"Ward 4","PSA":"Police Service Area 401"},"geometry":{"type":"Point","coordinates":[-77.02015914976741,38.97444421319945]}},{"type":"Feature","properties":{"OBJECTID":21,"GIS_ID":"Libr_19","NAME":"Parklands-Turner Library","ADDRESS":"1547 Alabama Avenue SE","PHONE":"(202) 645-4532","WEB_URL":"http://www.dclibrary.org/parklands","ADDRESS_ID":304504,"STATUS":"Open","X":401627.56,"Y":130931.77,"LATITUDE":38.84618686,"LONGITUDE":-76.98125132,"WARD":"Ward 8","PSA":"Police Service Area 704"},"geometry":{"type":"Point","coordinates":[-76.98125359233046,38.84619430810597]}},{"type":"Feature","properties":{"OBJECTID":22,"GIS_ID":"Libr_20","NAME":"Bellevue Library","ADDRESS":"115 Atlantic Street SW","PHONE":"(202) 243-1184","WEB_URL":"http://www.dclibrary.org/bellevue","ADDRESS_ID":302935,"STATUS":"Open","X":399186.87,"Y":129281.97,"LATITUDE":38.83132585,"LONGITUDE":-77.0093649,"WARD":"Ward 8","PSA":"Police Service Area 708"},"geometry":{"type":"Point","coordinates":[-77.00935672923698,38.831338353262545]}},{"type":"Feature","properties":{"OBJECTID":23,"GIS_ID":"Libr_21","NAME":"West End Library","ADDRESS":"2301 L Street NW","PHONE":"(202) 724-8707","WEB_URL":"http://www.dclibrary.org/westend","ADDRESS_ID":242337,"STATUS":"Open","X":395608.43,"Y":137346.76,"LATITUDE":38.90396584,"LONGITUDE":-77.05062968,"WARD":"Ward 2","PSA":"Police Service Area 207"},"geometry":{"type":"Point","coordinates":[-77.05046860738774,38.90395712709678]}},{"type":"Feature","properties":{"OBJECTID":24,"GIS_ID":"Libr_22","NAME":"Woodridge Library","ADDRESS":"1801 Hamlin Street NE","PHONE":"(202) 541-6226","WEB_URL":"http://www.dclibrary.org/woodridge","ADDRESS_ID":286483,"STATUS":"Open","X":401853.38,"Y":139951.63,"LATITUDE":38.92744073,"LONGITUDE":-76.97862566,"WARD":"Ward 5","PSA":"Police Service Area 504"},"geometry":{"type":"Point","coordinates":[-76.97862792266675,38.92744819069635]}},{"type":"Feature","properties":{"OBJECTID":25,"GIS_ID":"Libr_23","NAME":"Northwest One Library","ADDRESS":"155 L Street NW","PHONE":"(202) 939-5946","WEB_URL":"http://www.dclibrary.org/northwest","ADDRESS_ID":307736,"STATUS":"Open","X":398818.89,"Y":137349.69,"LATITUDE":38.90400275,"LONGITUDE":-77.01361683,"WARD":"Ward 6","PSA":"Police Service Area 103"},"geometry":{"type":"Point","coordinates":[-77.01321053857765,38.904036465781246]}},{"type":"Feature","properties":{"OBJECTID":26,"GIS_ID":"Libr_24","NAME":"Anacostia Library","ADDRESS":"1800 Good Hope Road SE","PHONE":"(202) 715-7708","WEB_URL":"http://www.dclibrary.org/anacostia","ADDRESS_ID":53560,"STATUS":"Open","X":401854.99,"Y":133121.03,"LATITUDE":38.8659082,"LONGITUDE":-76.97862553,"WARD":"Ward 8","PSA":"Police Service Area 701"},"geometry":{"type":"Point","coordinates":[-76.97848771798762,38.8659041832577]}},{"type":"Feature","properties":{"OBJECTID":27,"GIS_ID":"Libr_30","NAME":"Library Express","ADDRESS":"1990 K Street NW","PHONE":"(202) 727-1787","WEB_URL":"https://www.dclibrary.org/libraryexpress","ADDRESS_ID":218576,"STATUS":"Open","X":396135.86,"Y":137148.75,"LATITUDE":38.90218491,"LONGITUDE":-77.04454792,"WARD":"Ward 2","PSA":"Police Service Area 207"},"geometry":{"type":"Point","coordinates":[-77.04455020310643,38.90219236466297]}}]}