{"type":"FeatureCollection","features":[{"type":"Feature","properties":{"OBJECTID":1,"NAME":"EXHIBITION HALL AT THE U.S. CAPITOL VISITOR CENTER","ALT_NAME":"U.S. CAPITOL VISITOR CENTER","LABEL":"U.S. Capitol Visitor Center","MAR_MATCHADDRESS":null,"MAR_XCOORD":399216.07,"MAR_YCOORD":135772.41,"MAR_LONGITUDE":-77.009036,"MAR_LATITUDE":38.88979448,"MARID":294394},"geometry":{"type":"Point","coordinates":[-77.00903828917478,38.88980193441202]}},{"type":"Feature","properties":{"OBJECTID":2,"NAME":"THE WILDERNESS SOCIETY - ANSEL ADAMS COLLECTION","ALT_NAME":null,"LABEL":"The Wilderness Society - Ansel Adams Collection","MAR_MATCHADDRESS":"1615 M STREET NW","MAR_XCOORD":396760.09,"MAR_YCOORD":137555.81,"MAR_LONGITUDE":-77.03735337,"MAR_LATITUDE":38.90585437,"MARID":301103},"geometry":{"type":"Point","coordinates":[-77.03735566921281,38.90586182756772]}},{"type":"Feature","properties":{"OBJECTID":3,"NAME":"SPAGNUOLO ART GALLERY","ALT_NAME":"GEORGETOWN UNIVERSITY","LABEL":"Spagnuolo Art Gallery","MAR_MATCHADDRESS":"1221 36TH STREET NW","MAR_XCOORD":393918.52,"MAR_YCOORD":137608.15,"MAR_LONGITUDE":-77.07011468,"MAR_LATITUDE":38.9063108,"MARID":300017},"geometry":{"type":"Point","coordinates":[-77.07011698937882,38.906318255979166]}},{"type":"Feature","properties":{"OBJECTID":4,"NAME":"NATIONAL ZOOLOGICAL PARK","ALT_NAME":"NATIONAL ZOO","LABEL":"National Zoo","MAR_MATCHADDRESS":"3001 CONNECTICUT AVENUE NW","MAR_XCOORD":395280.68,"MAR_YCOORD":140304.77,"MAR_LONGITUDE":-77.05442859,"MAR_LATITUDE":38.93061121,"MARID":293230},"geometry":{"type":"Point","coordinates":[-77.05443089287583,38.93061866414421]}},{"type":"Feature","properties":{"OBJECTID":5,"NAME":"UNITED STATES BOTANIC GARDEN","ALT_NAME":null,"LABEL":"United States Botanic Garden","MAR_MATCHADDRESS":"100 MARYLAND AVENUE SW","MAR_XCOORD":398880.72000000003,"MAR_YCOORD":135600.79,"MAR_LONGITUDE":-77.01290115,"MAR_LATITUDE":38.8882481,"MARID":297683},"geometry":{"type":"Point","coordinates":[-77.01290343712567,38.88825555349887]}},{"type":"Feature","properties":{"OBJECTID":6,"NAME":"ANDERSON HOUSE","ALT_NAME":"THE SOCIETY OF THE CINCINNATI","LABEL":"Anderson House","MAR_MATCHADDRESS":"2118 MASSACHUSETTS AVENUE NW","MAR_XCOORD":395862.69,"MAR_YCOORD":138095.95,"MAR_LONGITUDE":-77.04770288,"MAR_LATITUDE":38.91071637,"MARID":293220},"geometry":{"type":"Point","coordinates":[-77.04770517476068,38.910723829014906]}},{"type":"Feature","properties":{"OBJECTID":7,"NAME":"CLARA BARTON MISSING SOLDIERS OFFICE MUSEUM","ALT_NAME":null,"LABEL":"Clara Barton Missing Soldiers Office Museum","MAR_MATCHADDRESS":"437 7TH STREET NW","MAR_XCOORD":398118.10000000003,"MAR_YCOORD":136445.97,"MAR_LONGITUDE":-77.02169365,"MAR_LATITUDE":38.8958605,"MARID":279777},"geometry":{"type":"Point","coordinates":[-77.02169593737644,38.89586794801658]}},{"type":"Feature","properties":{"OBJECTID":8,"NAME":"WHITTEMORE HOUSE","ALT_NAME":"WOMAN'S NATIONAL DEMOCRATIC CLUB","LABEL":"Whittemore House","MAR_MATCHADDRESS":"1526 NEW HAMPSHIRE AVENUE NW","MAR_XCOORD":396299.46,"MAR_YCOORD":138119.49,"MAR_LONGITUDE":-77.04266708,"MAR_LATITUDE":38.91093038,"MARID":225724},"geometry":{"type":"Point","coordinates":[-77.04266937531504,38.910937833055044]}},{"type":"Feature","properties":{"OBJECTID":9,"NAME":"AMERICA'S ISLAMIC HERITAGE MUSEUM","ALT_NAME":null,"LABEL":"America's Islamic Heritage Museum","MAR_MATCHADDRESS":"2315 MARTIN LUTHER KING JR AVENUE SE","MAR_XCOORD":400704.47000000003,"MAR_YCOORD":132824.68,"MAR_LONGITUDE":-76.99188292,"MAR_LATITUDE":38.86324023,"MARID":147815},"geometry":{"type":"Point","coordinates":[-76.99188519562473,38.86324767935229]}},{"type":"Feature","properties":{"OBJECTID":10,"NAME":"MUSEUM OF THE BIBLE","ALT_NAME":null,"LABEL":"Museum of the Bible","MAR_MATCHADDRESS":"400 4TH STREET SW","MAR_XCOORD":398513.09,"MAR_YCOORD":135221.5,"MAR_LONGITUDE":-77.017138,"MAR_LATITUDE":38.884831,"MARID":311513},"geometry":{"type":"Point","coordinates":[-77.01714002886557,38.88483821939961]}},{"type":"Feature","properties":{"OBJECTID":11,"NAME":"THE HISTORY OF CANNABIS MUSEUM\r\n","ALT_NAME":"The Cannabis Museum","LABEL":"The History of Cannabis  ","MAR_MATCHADDRESS":"3626 GEORGIA AVENUE NW\r\n","MAR_XCOORD":397890.55,"MAR_YCOORD":140771.35,"MAR_LONGITUDE":-77.02432999999999,"MAR_LATITUDE":38.934824,"MARID":232148},"geometry":{"type":"Point","coordinates":[-77.02433231160148,38.93483190213412]}},{"type":"Feature","properties":{"OBJECTID":12,"NAME":"D.C. FIRE AND EMS MUSEUM","ALT_NAME":null,"LABEL":"D.C. Fire and EMS Museum","MAR_MATCHADDRESS":"439 NEW JERSEY AVENUE NW","MAR_XCOORD":399054.4,"MAR_YCOORD":136442.95,"MAR_LONGITUDE":-77.0109,"MAR_LATITUDE":38.895835,"MARID":237163},"geometry":{"type":"Point","coordinates":[-77.01090270356515,38.895842248904195]}},{"type":"Feature","properties":{"OBJECTID":13,"NAME":"DUMBARTON HOUSE","ALT_NAME":null,"LABEL":"Dumbarton House","MAR_MATCHADDRESS":"2715 Q STREET NW","MAR_XCOORD":395154.76,"MAR_YCOORD":138111.58000000002,"MAR_LONGITUDE":-77.05586536,"MAR_LATITUDE":38.91085356,"MARID":273151},"geometry":{"type":"Point","coordinates":[-77.05586766003861,38.91086101152732]}},{"type":"Feature","properties":{"OBJECTID":14,"NAME":"HILLWOOD MUSEUM","ALT_NAME":"HILLWOOD ESTATE, MUSEUM AND GARDENS","LABEL":"Hillwood Museum","MAR_MATCHADDRESS":"4155 LINNEAN AVENUE NW","MAR_XCOORD":395438.56,"MAR_YCOORD":141750.35,"MAR_LONGITUDE":-77.05261735,"MAR_LATITUDE":38.94363425,"MARID":284839},"geometry":{"type":"Point","coordinates":[-77.0526196505072,38.94364171194316]}},{"type":"Feature","properties":{"OBJECTID":15,"NAME":"CORCORAN GALLERY OF ART","ALT_NAME":"CORCORAN MUSEUM AND COLLEGE OF ART + DESIGN","LABEL":"Corcoran Gallery of Art","MAR_MATCHADDRESS":"500 17TH STREET NW","MAR_XCOORD":396552.56,"MAR_YCOORD":136445,"MAR_LONGITUDE":-77.03974044,"MAR_LATITUDE":38.89584701,"MARID":279802},"geometry":{"type":"Point","coordinates":[-77.0397427304576,38.89585446382188]}},{"type":"Feature","properties":{"OBJECTID":16,"NAME":"THE TEXTILE MUSUEM","ALT_NAME":null,"LABEL":"The Textile Museum","MAR_MATCHADDRESS":"701 21ST STREET NW","MAR_XCOORD":395973.73,"MAR_YCOORD":136772.58000000002,"MAR_LONGITUDE":-77.04641484,"MAR_LATITUDE":38.89879551,"MARID":311648},"geometry":{"type":"Point","coordinates":[-77.04641713295982,38.898802962763945]}},{"type":"Feature","properties":{"OBJECTID":17,"NAME":"ROCK CREEK PARK NATURE CENTER AND PLANETARIUM","ALT_NAME":null,"LABEL":"Rock Creek Park Nature Center and Planetarium","MAR_MATCHADDRESS":"5200 GLOVER ROAD NW","MAR_XCOORD":395520.36,"MAR_YCOORD":143557.89,"MAR_LONGITUDE":-77.05168557,"MAR_LATITUDE":38.95991748,"MARID":308551},"geometry":{"type":"Point","coordinates":[-77.0516878730769,38.95992494412128]}},{"type":"Feature","properties":{"OBJECTID":18,"NAME":"NATIONAL MUSEUM OF WOMEN IN THE ARTS","ALT_NAME":null,"LABEL":"National Museum of Women in the Arts","MAR_MATCHADDRESS":"1250 NEW YORK AVENUE NW","MAR_XCOORD":397470.43,"MAR_YCOORD":136911.11000000002,"MAR_LONGITUDE":-77.02916139,"MAR_LATITUDE":38.90004902,"MARID":279010},"geometry":{"type":"Point","coordinates":[-77.029163689541,38.90005647268179]}},{"type":"Feature","properties":{"OBJECTID":19,"NAME":"HEURICH HOUSE MUSEUM","ALT_NAME":"THE BREWMASTER'S CASTLE","LABEL":"Heurich House Museum","MAR_MATCHADDRESS":"1307 NEW HAMPSHIRE AVENUE NW","MAR_XCOORD":396131.32,"MAR_YCOORD":137796.8,"MAR_LONGITUDE":-77.04460391,"MAR_LATITUDE":38.90802275,"MARID":241060},"geometry":{"type":"Point","coordinates":[-77.04460619923155,38.9080302065099]}},{"type":"Feature","properties":{"OBJECTID":20,"NAME":"CHARLES SUMNER SCHOOL","ALT_NAME":null,"LABEL":"Charles Sumner School","MAR_MATCHADDRESS":"1201 17TH STREET NW","MAR_XCOORD":396683.95,"MAR_YCOORD":137568.46,"MAR_LONGITUDE":-77.03823126,"MAR_LATITUDE":38.90596805,"MARID":301200},"geometry":{"type":"Point","coordinates":[-77.03823356490072,38.905975499207166]}},{"type":"Feature","properties":{"OBJECTID":21,"NAME":"FREER GALLERY OF ART","ALT_NAME":null,"LABEL":"Freer Gallery of Art","MAR_MATCHADDRESS":null,"MAR_XCOORD":397627.38,"MAR_YCOORD":135603.3,"MAR_LONGITUDE":-77.027348,"MAR_LATITUDE":38.888268,"MARID":294417},"geometry":{"type":"Point","coordinates":[-77.02734981490975,38.8882756750134]}},{"type":"Feature","properties":{"OBJECTID":22,"NAME":"NATIONAL MUSEUM OF AMERICAN JEWISH MILITARY HISTORY","ALT_NAME":null,"LABEL":"National Museum of American Jewish Military History","MAR_MATCHADDRESS":"1811 R STREET NW","MAR_XCOORD":396347.57,"MAR_YCOORD":138328.47,"MAR_LONGITUDE":-77.04211348,"MAR_LATITUDE":38.91281314,"MARID":243292},"geometry":{"type":"Point","coordinates":[-77.04211577477285,38.91282059721026]}},{"type":"Feature","properties":{"OBJECTID":23,"NAME":"DONALD W. REYNOLDS CENTER FOR AMERICAN ART AND PORTRAITURE","ALT_NAME":"NATIONAL PORTRAIT GALLERY","LABEL":"National Portrait Gallery","MAR_MATCHADDRESS":null,"MAR_XCOORD":398007.26,"MAR_YCOORD":136703.59,"MAR_LONGITUDE":-77.022972,"MAR_LATITUDE":38.898181,"MARID":294248},"geometry":{"type":"Point","coordinates":[-77.0229743901645,38.89818843864067]}},{"type":"Feature","properties":{"OBJECTID":24,"NAME":"THE PHILLIPS COLLECTION","ALT_NAME":null,"LABEL":"The Phillips Collection","MAR_MATCHADDRESS":"1600 21ST STREET NW","MAR_XCOORD":395936.51,"MAR_YCOORD":138183.16,"MAR_LONGITUDE":-77.04685225,"MAR_LATITUDE":38.91150234,"MARID":243333},"geometry":{"type":"Point","coordinates":[-77.04685454590388,38.91150979086159]}},{"type":"Feature","properties":{"OBJECTID":25,"NAME":"L. RON HUBBARD HOUSE","ALT_NAME":"L. RON HUBBARD HOUSE","LABEL":"L. Ron Hubbard House","MAR_MATCHADDRESS":"1812 19TH STREET NW","MAR_XCOORD":396207.16000000003,"MAR_YCOORD":138525.62,"MAR_LONGITUDE":-77.04373354,"MAR_LATITUDE":38.91458854,"MARID":240991},"geometry":{"type":"Point","coordinates":[-77.04373584009504,38.9145959960369]}},{"type":"Feature","properties":{"OBJECTID":26,"NAME":"DONALD W. REYNOLDS CENTER FOR AMERICAN ART AND PORTRAITURE","ALT_NAME":"SMITHSONIAN AMERICAN ART MUSEUM","LABEL":"Smithsonian American Art Museum","MAR_MATCHADDRESS":null,"MAR_XCOORD":398007.26,"MAR_YCOORD":136703.59,"MAR_LONGITUDE":-77.022972,"MAR_LATITUDE":38.898181,"MARID":294248},"geometry":{"type":"Point","coordinates":[-77.0229743901645,38.89818843864067]}},{"type":"Feature","properties":{"OBJECTID":27,"NAME":"AFRICAN AMERICAN CIVIL WAR MEMORIAL MUSEUM","ALT_NAME":null,"LABEL":"African American Civil War Memorial Museum","MAR_MATCHADDRESS":"1925 VERMONT AVENUE NW","MAR_XCOORD":397800.35000000003,"MAR_YCOORD":138730.11000000002,"MAR_LONGITUDE":-77.02536383,"MAR_LATITUDE":38.91643609,"MARID":310615},"geometry":{"type":"Point","coordinates":[-77.02536612606717,38.91644354260705]}},{"type":"Feature","properties":{"OBJECTID":28,"NAME":"HISTORICAL SOCIETY OF WASHINGTON DC","ALT_NAME":null,"LABEL":"Historical Society of Washington DC","MAR_MATCHADDRESS":"801 K STREET NW","MAR_XCOORD":398009.93,"MAR_YCOORD":137196.59,"MAR_LONGITUDE":-77.02294275,"MAR_LATITUDE":38.90262211,"MARID":238956},"geometry":{"type":"Point","coordinates":[-77.02294505078932,38.902629565845544]}},{"type":"Feature","properties":{"OBJECTID":29,"NAME":"ART MUSEUM OF THE AMERICAS","ALT_NAME":null,"LABEL":"Art Museum of the Americas","MAR_MATCHADDRESS":"201 18TH STREET NW","MAR_XCOORD":396402.23,"MAR_YCOORD":136105.98,"MAR_LONGITUDE":-77.0414716,"MAR_LATITUDE":38.89279239,"MARID":294191},"geometry":{"type":"Point","coordinates":[-77.04147388756545,38.892799844291496]}},{"type":"Feature","properties":{"OBJECTID":30,"NAME":"SMITHSONIAN INSTITUTION - CASTLE","ALT_NAME":"SMITHSONIAN CASTLE","LABEL":"Smithsonian Castle","MAR_MATCHADDRESS":"1000 JEFFERSON DRIVE SW","MAR_XCOORD":397745.35000000003,"MAR_YCOORD":135663.26,"MAR_LONGITUDE":-77.02598796,"MAR_LATITUDE":38.88880868,"MARID":293187},"geometry":{"type":"Point","coordinates":[-77.0259902482823,38.88881612787042]}},{"type":"Feature","properties":{"OBJECTID":31,"NAME":"INTERNATIONAL SPY MUSEUM","ALT_NAME":"SPY MUSEUM","LABEL":"International Spy Museum","MAR_MATCHADDRESS":"800 F STREET NW","MAR_XCOORD":397980.18,"MAR_YCOORD":136570.17,"MAR_LONGITUDE":-77.02328389,"MAR_LATITUDE":38.89697903,"MARID":238378},"geometry":{"type":"Point","coordinates":[-77.02328618491306,38.896986480912894]}},{"type":"Feature","properties":{"OBJECTID":32,"NAME":"LUTHER W. BRADY ART GALLERY","ALT_NAME":"GEORGE WASHINGTON UNIVERISTY LUTHER W. BRADY ART GALLERY","LABEL":"Luther W. Brady Art Gallery","MAR_MATCHADDRESS":"805 21ST STREET NW","MAR_XCOORD":395976.25,"MAR_YCOORD":136885.18,"MAR_LONGITUDE":-77.04638644,"MAR_LATITUDE":38.89980986,"MARID":240947},"geometry":{"type":"Point","coordinates":[-77.04638873627697,38.899817315669075]}},{"type":"Feature","properties":{"OBJECTID":33,"NAME":"OCTAGON HOUSE","ALT_NAME":"OCTAGON MUSEUM","LABEL":"Octagon House","MAR_MATCHADDRESS":"1799 NEW YORK AVENUE NW","MAR_XCOORD":396407.24,"MAR_YCOORD":136500.49,"MAR_LONGITUDE":-77.04141591,"MAR_LATITUDE":38.8963463,"MARID":218490},"geometry":{"type":"Point","coordinates":[-77.04141820048949,38.89635375607101]}},{"type":"Feature","properties":{"OBJECTID":34,"NAME":"NATIONAL GALLERY OF ART - EAST BUILDING","ALT_NAME":null,"LABEL":"National Gallery of Art - East Building","MAR_MATCHADDRESS":null,"MAR_XCOORD":398558.51,"MAR_YCOORD":135929.24,"MAR_LONGITUDE":-77.016616,"MAR_LATITUDE":38.891206,"MARID":293209},"geometry":{"type":"Point","coordinates":[-77.016618008867,38.891213885397335]}},{"type":"Feature","properties":{"OBJECTID":35,"NAME":"NATIONAL GALLERY OF ART SCULPTURE GARDEN","ALT_NAME":null,"LABEL":"National Gallery of Art Sculpture Garden","MAR_MATCHADDRESS":null,"MAR_XCOORD":398012.8,"MAR_YCOORD":135934.59,"MAR_LONGITUDE":-77.02290599999999,"MAR_LATITUDE":38.891253999999996,"MARID":293258},"geometry":{"type":"Point","coordinates":[-77.02290830077898,38.89126101582577]}},{"type":"Feature","properties":{"OBJECTID":36,"NAME":"U.S. DAUGHTERS OF 1812 LIBRARY AND MUSEUM","ALT_NAME":null,"LABEL":"U.S. Daughters of 1812 Library and Museum","MAR_MATCHADDRESS":"1463 RHODE ISLAND AVENUE NW","MAR_XCOORD":397037.45,"MAR_YCOORD":137833.43,"MAR_LONGITUDE":-77.03415685,"MAR_LATITUDE":38.90835625,"MARID":240224},"geometry":{"type":"Point","coordinates":[-77.03415914996665,38.90836370388604]}},{"type":"Feature","properties":{"OBJECTID":37,"NAME":"NATIONAL GALLERY OF ART - WEST BUILDING","ALT_NAME":null,"LABEL":"National Gallery of Art - West Building","MAR_MATCHADDRESS":null,"MAR_XCOORD":398271.65,"MAR_YCOORD":135939.53,"MAR_LONGITUDE":-77.019922,"MAR_LATITUDE":38.891299,"MARID":293249},"geometry":{"type":"Point","coordinates":[-77.01992460548385,38.89130606429488]}},{"type":"Feature","properties":{"OBJECTID":38,"NAME":"NATIONAL MUSEUM OF AMERICAN HISTORY","ALT_NAME":null,"LABEL":"National Museum of American History","MAR_MATCHADDRESS":null,"MAR_XCOORD":397398.34,"MAR_YCOORD":135928.76,"MAR_LONGITUDE":-77.029989,"MAR_LATITUDE":38.891199,"MARID":293200},"geometry":{"type":"Point","coordinates":[-77.02999102544388,38.891206893103025]}},{"type":"Feature","properties":{"OBJECTID":39,"NAME":"NATIONAL GEOGRAPHIC MUSEUM","ALT_NAME":"EXPLORERS HALL","LABEL":"National Geographic Museum","MAR_MATCHADDRESS":"1145 17TH STREET NW","MAR_XCOORD":396690.69,"MAR_YCOORD":137482.05,"MAR_LONGITUDE":-77.03815314,"MAR_LATITUDE":38.90518966,"MARID":290192},"geometry":{"type":"Point","coordinates":[-77.03815544194862,38.905197113049624]}},{"type":"Feature","properties":{"OBJECTID":40,"NAME":"NAVAL HERITAGE CENTER","ALT_NAME":"NAVAL HERITAGE CENTER","LABEL":"Naval Heritage Center","MAR_MATCHADDRESS":"701 PENNSYLVANIA AVENUE NW","MAR_XCOORD":398058.52,"MAR_YCOORD":136288.13,"MAR_LONGITUDE":-77.02238001,"MAR_LATITUDE":38.89443849,"MARID":279889},"geometry":{"type":"Point","coordinates":[-77.02238229552589,38.89444593765409]}},{"type":"Feature","properties":{"OBJECTID":41,"NAME":"DECATUR HOUSE MUSEUM","ALT_NAME":null,"LABEL":"Decatur House Museum","MAR_MATCHADDRESS":"748 JACKSON PLACE NW","MAR_XCOORD":396686.68,"MAR_YCOORD":136908.88,"MAR_LONGITUDE":-77.03819661,"MAR_LATITUDE":38.90002633,"MARID":293257},"geometry":{"type":"Point","coordinates":[-77.03819890235918,38.900033778952206]}},{"type":"Feature","properties":{"OBJECTID":42,"NAME":"O STREET MUSEUM FOUNDATION","ALT_NAME":"O STREET MUSEUM","LABEL":"O Street Museum","MAR_MATCHADDRESS":"2020 O STREET NW","MAR_XCOORD":396016.74,"MAR_YCOORD":137836.91,"MAR_LONGITUDE":-77.04592519,"MAR_LATITUDE":38.90838357,"MARID":243057},"geometry":{"type":"Point","coordinates":[-77.04592748104784,38.908391019417515]}},{"type":"Feature","properties":{"OBJECTID":43,"NAME":"THE SAINT JOHN PAUL II NATIONAL SHRINE","ALT_NAME":null,"LABEL":"The Saint John Paul II National Shrine","MAR_MATCHADDRESS":"3900 HAREWOOD ROAD NE","MAR_XCOORD":399595.57,"MAR_YCOORD":141096.85,"MAR_LONGITUDE":-77.00466482,"MAR_LATITUDE":38.93775908,"MARID":288031},"geometry":{"type":"Point","coordinates":[-77.00466710351098,38.93776654366723]}},{"type":"Feature","properties":{"OBJECTID":44,"NAME":"AMERICAN POETRY MUSEUM","ALT_NAME":null,"LABEL":"American Poetry Museum","MAR_MATCHADDRESS":"716 MONROE STREET NE","MAR_XCOORD":400432.98,"MAR_YCOORD":140550.05000000002,"MAR_LONGITUDE":-76.99500622,"MAR_LATITUDE":38.93283333,"MARID":309744},"geometry":{"type":"Point","coordinates":[-76.99500850857245,38.932840791103416]}},{"type":"Feature","properties":{"OBJECTID":45,"NAME":"THE NATIONAL BONSAI AND PENJING MUSEUM","ALT_NAME":null,"LABEL":"The National Bonsai and Penjing Museum","MAR_MATCHADDRESS":"3501 NEW YORK AVENUE NE","MAR_XCOORD":402611.37,"MAR_YCOORD":138282.54,"MAR_LONGITUDE":-76.96989039,"MAR_LATITUDE":38.9124031,"MARID":293238},"geometry":{"type":"Point","coordinates":[-76.96989266812075,38.91241055669073]}},{"type":"Feature","properties":{"OBJECTID":46,"NAME":"NATIONAL MUSEUM OF UNITED STATES NAVY","ALT_NAME":null,"LABEL":"National Museum of United States Navy","MAR_MATCHADDRESS":"736 SICARD STREET SE","MAR_XCOORD":400407.5,"MAR_YCOORD":133912,"MAR_LONGITUDE":-76.99530404,"MAR_LATITUDE":38.87303544,"MARID":311896},"geometry":{"type":"Point","coordinates":[-76.99530631694397,38.87304289161744]}},{"type":"Feature","properties":{"OBJECTID":47,"NAME":"ARMENIAN GENOCIDE MUSEUM AND MEMORIAL","ALT_NAME":null,"LABEL":"Armenian Genocide Museum and Memorial","MAR_MATCHADDRESS":"1334 G STREET NW","MAR_XCOORD":397303.75,"MAR_YCOORD":136688.31,"MAR_LONGITUDE":-77.03108204,"MAR_LATITUDE":38.89804146,"MARID":240658},"geometry":{"type":"Point","coordinates":[-77.03108432435003,38.898048914266845]}},{"type":"Feature","properties":{"OBJECTID":48,"NAME":"POWHATAN MUSEUM","ALT_NAME":null,"LABEL":"Powhatan Museum","MAR_MATCHADDRESS":"1519 MONROE STREET NW","MAR_XCOORD":396921.62,"MAR_YCOORD":140505.94,"MAR_LONGITUDE":-77.0355043,"MAR_LATITUDE":38.93243069,"MARID":234557},"geometry":{"type":"Point","coordinates":[-77.03550660261739,38.93243814726254]}},{"type":"Feature","properties":{"OBJECTID":49,"NAME":"AMERICAN UNIVERSITY MUSEUM AT THE KATZEN ARTS CENTER","ALT_NAME":"AMERICAN UNIVERSITY MUSEUM","LABEL":"American University Museum at the Katzen Arts Center","MAR_MATCHADDRESS":" 3500 NEBRASKA AVENUE NW","MAR_XCOORD":392470.36,"MAR_YCOORD":141248.41,"MAR_LONGITUDE":-77.086851,"MAR_LATITUDE":38.939091999999995,"MARID":223996},"geometry":{"type":"Point","coordinates":[-77.08685306296229,38.9390996651148]}},{"type":"Feature","properties":{"OBJECTID":50,"NAME":"NATIONAL MUSUEM OF AFRICAN AMERICAN HISTORY AND CULTURE","ALT_NAME":null,"LABEL":"National Museum of African American History and Culture","MAR_MATCHADDRESS":"1400 CONSTITUTION AVENUE NW","MAR_XCOORD":397154.17,"MAR_YCOORD":135933.91,"MAR_LONGITUDE":-77.03280325,"MAR_LATITUDE":38.89124508,"MARID":310702},"geometry":{"type":"Point","coordinates":[-77.03280554484462,38.891252529642635]}},{"type":"Feature","properties":{"OBJECTID":51,"NAME":"WOODROW WILSON HOUSE","ALT_NAME":null,"LABEL":"Woodrow Wilson House","MAR_MATCHADDRESS":"2340 S STREET NW","MAR_XCOORD":395515.89,"MAR_YCOORD":138444.45,"MAR_LONGITUDE":-77.05170373,"MAR_LATITUDE":38.91385408,"MARID":218994},"geometry":{"type":"Point","coordinates":[-77.05170602931466,38.91386153402251]}},{"type":"Feature","properties":{"OBJECTID":52,"NAME":"TUDOR PLACE","ALT_NAME":null,"LABEL":"Tudor Place","MAR_MATCHADDRESS":"1644 31ST STREET NW","MAR_XCOORD":394537.25,"MAR_YCOORD":138182.31,"MAR_LONGITUDE":-77.06298578,"MAR_LATITUDE":38.9114871,"MARID":297689},"geometry":{"type":"Point","coordinates":[-77.06298808665895,38.91149455001302]}},{"type":"Feature","properties":{"OBJECTID":53,"NAME":"SEWALL-BELMONT","ALT_NAME":"SEWALL-BELMONT HOUSE AND MUSEUM","LABEL":"Sewall-Belmont","MAR_MATCHADDRESS":"144 CONSTITUTION AVENUE NE","MAR_XCOORD":399674.14,"MAR_YCOORD":136037.99,"MAR_LONGITUDE":-77.00375617,"MAR_LATITUDE":38.89218722,"MARID":286201},"geometry":{"type":"Point","coordinates":[-77.00375844974614,38.892194667876716]}},{"type":"Feature","properties":{"OBJECTID":54,"NAME":"LINCOLN'S COTTAGE","ALT_NAME":"ARMED FORCES RETIREMENT HOME BUILDING 12","LABEL":"Lincoln's Cottage","MAR_MATCHADDRESS":"LINCOLN''S COTTAGE","MAR_XCOORD":398979.76,"MAR_YCOORD":141534.42,"MAR_LONGITUDE":-77.0117684,"MAR_LATITUDE":38.94170034,"MARID":292871},"geometry":{"type":"Point","coordinates":[-77.01177069271216,38.941707803294285]}},{"type":"Feature","properties":{"OBJECTID":55,"NAME":"RENWICK GALLERY","ALT_NAME":null,"LABEL":"Renwick Gallery","MAR_MATCHADDRESS":"1661 PENNSYLVANIA AVENUE NW","MAR_XCOORD":396609.31,"MAR_YCOORD":136809.51,"MAR_LONGITUDE":-77.03908805,"MAR_LATITUDE":38.89913087,"MARID":294185},"geometry":{"type":"Point","coordinates":[-77.03909034859876,38.89913832314096]}},{"type":"Feature","properties":{"OBJECTID":56,"NAME":"NATIONAL MUSEUM OF THE AMERICAN INDIAN","ALT_NAME":null,"LABEL":"National Museum of the American Indian","MAR_MATCHADDRESS":"NATIONAL MUSEUM OF THE AMERICAN INDIAN","MAR_XCOORD":398557.25,"MAR_YCOORD":135603.87,"MAR_LONGITUDE":-77.01662957,"MAR_LATITUDE":38.88827538,"MARID":294429},"geometry":{"type":"Point","coordinates":[-77.01663185498468,38.88828282785491]}},{"type":"Feature","properties":{"OBJECTID":57,"NAME":"NATIONAL POSTAL MUSEUM","ALT_NAME":null,"LABEL":"National Postal Museum","MAR_MATCHADDRESS":"2 MASSACHUSETTS AVENUE NE","MAR_XCOORD":399289.64,"MAR_YCOORD":136698.7,"MAR_LONGITUDE":-77.00818895,"MAR_LATITUDE":38.89813891,"MARID":293217},"geometry":{"type":"Point","coordinates":[-77.00819123936462,38.898146359940014]}},{"type":"Feature","properties":{"OBJECTID":58,"NAME":"NATIONAL AIR AND SPACE MUSEUM","ALT_NAME":null,"LABEL":"National Air and Space Museum","MAR_MATCHADDRESS":"NATIONAL AIR AND SPACE MUSEUM","MAR_XCOORD":398278.05,"MAR_YCOORD":135596.11000000002,"MAR_LONGITUDE":-77.01984769,"MAR_LATITUDE":38.88820497,"MARID":301565},"geometry":{"type":"Point","coordinates":[-77.01984997894954,38.888212420212376]}},{"type":"Feature","properties":{"OBJECTID":59,"NAME":"NATIONAL MUSEUM OF AFRICAN ART","ALT_NAME":null,"LABEL":"National Museum of African Art","MAR_MATCHADDRESS":"950 INDEPENDENCE AVENUE SW","MAR_XCOORD":397787.06,"MAR_YCOORD":135568.45,"MAR_LONGITUDE":-77.02550689,"MAR_LATITUDE":38.8879547,"MARID":293262},"geometry":{"type":"Point","coordinates":[-77.02550918302255,38.88796214949841]}},{"type":"Feature","properties":{"OBJECTID":60,"NAME":"NATIONAL MUSEUM OF NATURAL HISTORY","ALT_NAME":null,"LABEL":"National Museum of Natural History","MAR_MATCHADDRESS":"NATIONAL MUSEUM OF NATURAL HISTORY","MAR_XCOORD":397748.34,"MAR_YCOORD":135930.56,"MAR_LONGITUDE":-77.02595438,"MAR_LATITUDE":38.89121662,"MARID":293188},"geometry":{"type":"Point","coordinates":[-77.02595666625842,38.89122407440931]}},{"type":"Feature","properties":{"OBJECTID":61,"NAME":"NATIONAL GUARD MEMORIAL MUSEUM","ALT_NAME":null,"LABEL":"National Guard Memorial Museum","MAR_MATCHADDRESS":"1 MASSACHUSETTS AVENUE NW","MAR_XCOORD":399170.78,"MAR_YCOORD":136696.43,"MAR_LONGITUDE":-77.00955916,"MAR_LATITUDE":38.89811835,"MARID":238009},"geometry":{"type":"Point","coordinates":[-77.00956144228859,38.89812580681948]}},{"type":"Feature","properties":{"OBJECTID":62,"NAME":"MERIDIAN INTERNATIONAL CENTER","ALT_NAME":"MERIDIAN HOUSE INTERNATIONAL","LABEL":"Meridian International Center","MAR_MATCHADDRESS":"1630 CRESCENT PLACE NW","MAR_XCOORD":396688.85000000003,"MAR_YCOORD":139150.46,"MAR_LONGITUDE":-77.0381824,"MAR_LATITUDE":38.92021925,"MARID":235803},"geometry":{"type":"Point","coordinates":[-77.03818469583739,38.92022670857043]}},{"type":"Feature","properties":{"OBJECTID":63,"NAME":"HOWARD UNIVERSITY GALLERY OF ART","ALT_NAME":null,"LABEL":"Howard University Gallery of Art","MAR_MATCHADDRESS":"2455 6TH STREET NW","MAR_XCOORD":398180.62,"MAR_YCOORD":139628.4,"MAR_LONGITUDE":-77.02098138,"MAR_LATITUDE":38.92452904,"MARID":188381},"geometry":{"type":"Point","coordinates":[-77.02098366978916,38.924536501809214]}},{"type":"Feature","properties":{"OBJECTID":64,"NAME":"HOWARD UNIVERSITY MUSEUM","ALT_NAME":null,"LABEL":"Howard University Museum","MAR_MATCHADDRESS":"500 HOWARD PLACE NW","MAR_XCOORD":398291.95,"MAR_YCOORD":139386.79,"MAR_LONGITUDE":-77.0196969,"MAR_LATITUDE":38.92235277,"MARID":243398},"geometry":{"type":"Point","coordinates":[-77.0196991929266,38.92236022474991]}},{"type":"Feature","properties":{"OBJECTID":65,"NAME":"KREEGER MUSEUM","ALT_NAME":null,"LABEL":"Kreeger Museum","MAR_MATCHADDRESS":"2401 FOXHALL ROAD NW","MAR_XCOORD":392301.36,"MAR_YCOORD":139340.59,"MAR_LONGITUDE":-77.08877868,"MAR_LATITUDE":38.92190452,"MARID":271251},"geometry":{"type":"Point","coordinates":[-77.0887809936663,38.92191197499129]}},{"type":"Feature","properties":{"OBJECTID":66,"NAME":"GERMAN-AMERICAN HERITAGE MUSEUM","ALT_NAME":null,"LABEL":"German-American Heritage Museum","MAR_MATCHADDRESS":"719 6TH STREET NW","MAR_XCOORD":398300.97000000003,"MAR_YCOORD":136805.89,"MAR_LONGITUDE":-77.0195865,"MAR_LATITUDE":38.89910316,"MARID":238949},"geometry":{"type":"Point","coordinates":[-77.01958878887042,38.89911061096686]}},{"type":"Feature","properties":{"OBJECTID":67,"NAME":"HIRSHHORN MUSEUM AND SCULPTURE GARDEN","ALT_NAME":null,"LABEL":"Hirshhorn Museum and Sculpture Garden","MAR_MATCHADDRESS":null,"MAR_XCOORD":398007.99,"MAR_YCOORD":135618.58000000002,"MAR_LONGITUDE":-77.022961,"MAR_LATITUDE":38.888407,"MARID":294428},"geometry":{"type":"Point","coordinates":[-77.02296283402555,38.88841426795473]}},{"type":"Feature","properties":{"OBJECTID":68,"NAME":"S. DILLON RIPLEY CENTER","ALT_NAME":null,"LABEL":"S. Dillon Ripley Center","MAR_MATCHADDRESS":"1100 JEFFERSON DRIVE SW","MAR_XCOORD":397668.39,"MAR_YCOORD":135635.51,"MAR_LONGITUDE":-77.02687494,"MAR_LATITUDE":38.88855849,"MARID":308882},"geometry":{"type":"Point","coordinates":[-77.0268772306523,38.88856594461497]}},{"type":"Feature","properties":{"OBJECTID":69,"NAME":"AMERICAN RED CROSS MUSEUM","ALT_NAME":null,"LABEL":"American Red Cross Museum","MAR_MATCHADDRESS":"430 17TH STREET NW","MAR_XCOORD":396512.23,"MAR_YCOORD":136330.91,"MAR_LONGITUDE":-77.04020477,"MAR_LATITUDE":38.89481909,"MARID":300987},"geometry":{"type":"Point","coordinates":[-77.04020706198521,38.894826540139206]}},{"type":"Feature","properties":{"OBJECTID":70,"NAME":"ANACOSTIA COMMUNITY MUSEUM","ALT_NAME":null,"LABEL":"Anacostia Community Museum","MAR_MATCHADDRESS":"1901 FORT PLACE SE","MAR_XCOORD":402015.21,"MAR_YCOORD":132085.04,"MAR_LONGITUDE":-76.9767824,"MAR_LATITUDE":38.85657522,"MARID":286524},"geometry":{"type":"Point","coordinates":[-76.97678467763043,38.856582663691576]}},{"type":"Feature","properties":{"OBJECTID":71,"NAME":"ARTHUR M. SACKLER GALLERY","ALT_NAME":null,"LABEL":"Arthur M. Sackler Gallery","MAR_MATCHADDRESS":"1050 INDEPENDENCE AVENUE SW","MAR_XCOORD":397705.76,"MAR_YCOORD":135568.35,"MAR_LONGITUDE":-77.02644398,"MAR_LATITUDE":38.88795359,"MARID":293191},"geometry":{"type":"Point","coordinates":[-77.02644626678214,38.887961040232184]}},{"type":"Feature","properties":{"OBJECTID":72,"NAME":"NEWSEUM","ALT_NAME":null,"LABEL":"Newseum","MAR_MATCHADDRESS":"555 PENNSYLVANIA AVENUE NW","MAR_XCOORD":398321.34,"MAR_YCOORD":136142.24,"MAR_LONGITUDE":-77.01935005,"MAR_LATITUDE":38.8931248,"MARID":297641},"geometry":{"type":"Point","coordinates":[-77.01935234043823,38.89313224780026]}},{"type":"Feature","properties":{"OBJECTID":73,"NAME":"NATIONAL BUILDING MUSEUM","ALT_NAME":null,"LABEL":"National Building Museum","MAR_MATCHADDRESS":"401 F STREET NW","MAR_XCOORD":398477.49,"MAR_YCOORD":136656.21,"MAR_LONGITUDE":-77.01755124,"MAR_LATITUDE":38.89775511,"MARID":242924},"geometry":{"type":"Point","coordinates":[-77.01755352543518,38.89776256277636]}},{"type":"Feature","properties":{"OBJECTID":74,"NAME":"UNITED STATES HOLOCAUST MEMORIAL MUSEUM","ALT_NAME":null,"LABEL":"United States Holocaust Memorial Museum","MAR_MATCHADDRESS":"100 RAOUL WALLENBERG PLACE SW","MAR_XCOORD":397164.14,"MAR_YCOORD":135427.29,"MAR_LONGITUDE":-77.03268624,"MAR_LATITUDE":38.88668129,"MARID":293186},"geometry":{"type":"Point","coordinates":[-77.0326885316311,38.886688737735305]}},{"type":"Feature","properties":{"OBJECTID":75,"NAME":"HOUSE OF THE TEMPLE","ALT_NAME":null,"LABEL":"House of the Temple","MAR_MATCHADDRESS":"1733 16TH STREET NW","MAR_XCOORD":396892.86,"MAR_YCOORD":138425.86000000002,"MAR_LONGITUDE":-77.03582659,"MAR_LATITUDE":38.91369256,"MARID":242883},"geometry":{"type":"Point","coordinates":[-77.03582888223609,38.91370001640973]}},{"type":"Feature","properties":{"OBJECTID":76,"NAME":"MEXICAN CULTURAL INSTITUTE","ALT_NAME":null,"LABEL":"Mexican Cultural Institute","MAR_MATCHADDRESS":"2829 16TH STREET NW","MAR_XCOORD":396875.36,"MAR_YCOORD":139741.57,"MAR_LONGITUDE":-77.03603436,"MAR_LATITUDE":38.92554484,"MARID":235878},"geometry":{"type":"Point","coordinates":[-77.03603665344193,38.925552300776985]}},{"type":"Feature","properties":{"OBJECTID":77,"NAME":"NATIONAL ARCHIVES","ALT_NAME":null,"LABEL":"National Archives","MAR_MATCHADDRESS":"700 PENNSYLVANIA AVENUE NW","MAR_XCOORD":398017.10000000003,"MAR_YCOORD":136111.39,"MAR_LONGITUDE":-77.02285696,"MAR_LATITUDE":38.89284625,"MARID":293251},"geometry":{"type":"Point","coordinates":[-77.02285925173544,38.89285370583567]}},{"type":"Feature","properties":{"OBJECTID":78,"NAME":"DAUGHTERS OF THE AMERICAN REVOLUTION MUSEUM","ALT_NAME":null,"LABEL":"Daughters of the American Revolution Museum","MAR_MATCHADDRESS":"1776 D STREET NW","MAR_XCOORD":396530.26,"MAR_YCOORD":136235.36000000002,"MAR_LONGITUDE":-77.03999645,"MAR_LATITUDE":38.89395841,"MARID":279384},"geometry":{"type":"Point","coordinates":[-77.03999874109076,38.89396586189145]}},{"type":"Feature","properties":{"OBJECTID":79,"NAME":"INTERIOR MUSEUM","ALT_NAME":"DEPARTMENT OF THE INTERIOR MUSEUM","LABEL":"Interior Museum","MAR_MATCHADDRESS":"1849 C STREET NW","MAR_XCOORD":396304.4,"MAR_YCOORD":136289.52,"MAR_LONGITUDE":-77.04260027,"MAR_LATITUDE":38.89444538,"MARID":293214},"geometry":{"type":"Point","coordinates":[-77.04260257010687,38.89445283458713]}},{"type":"Feature","properties":{"OBJECTID":80,"NAME":"FREDERICK DOUGLASS NATIONAL HISTORIC SITE","ALT_NAME":null,"LABEL":"Frederick Douglass National Historic Site","MAR_MATCHADDRESS":"1411 W STREET SE","MAR_XCOORD":401286.45,"MAR_YCOORD":132840.49,"MAR_LONGITUDE":-76.98517717,"MAR_LATITUDE":38.863382,"MARID":293207},"geometry":{"type":"Point","coordinates":[-76.98517944195609,38.86338944396116]}},{"type":"Feature","properties":{"OBJECTID":81,"NAME":"MARY BETHUNE COUNCIL HOUSE","ALT_NAME":"BETHUNE MEMORIAL MUSEUM","LABEL":"Mary Bethune Council House","MAR_MATCHADDRESS":"1318 VERMONT AVENUE NW","MAR_XCOORD":397323.10000000003,"MAR_YCOORD":137812.47,"MAR_LONGITUDE":-77.03086335,"MAR_LATITUDE":38.90816835,"MARID":225385},"geometry":{"type":"Point","coordinates":[-77.03086564758623,38.90817580546503]}},{"type":"Feature","properties":{"OBJECTID":82,"NAME":"FORD'S THEATRE","ALT_NAME":null,"LABEL":"Ford's Theatre","MAR_MATCHADDRESS":"511 10TH STREET NW","MAR_XCOORD":397762.2,"MAR_YCOORD":136526.26,"MAR_LONGITUDE":-77.02579655,"MAR_LATITUDE":38.89658294,"MARID":239829},"geometry":{"type":"Point","coordinates":[-77.02579884581658,38.89659039563961]}},{"type":"Feature","properties":{"OBJECTID":83,"NAME":"PETERSEN HOUSE","ALT_NAME":null,"LABEL":"Petersen House","MAR_MATCHADDRESS":"516 10TH STREET NW","MAR_XCOORD":397727.31,"MAR_YCOORD":136546.82,"MAR_LONGITUDE":-77.02619882,"MAR_LATITUDE":38.89676807,"MARID":239374},"geometry":{"type":"Point","coordinates":[-77.02620111333559,38.89677551810566]}},{"type":"Feature","properties":{"OBJECTID":84,"NAME":"GALLAUDET UNIVERSITY MUSEUM","ALT_NAME":"CHAPEL HALL","LABEL":"Gallaudet University Museum","MAR_MATCHADDRESS":"800 FLORIDA AVENUE NE","MAR_XCOORD":400439.78,"MAR_YCOORD":137546.46,"MAR_LONGITUDE":-76.99492972,"MAR_LATITUDE":38.90577601,"MARID":288964},"geometry":{"type":"Point","coordinates":[-76.99493200314244,38.905783462255705]}}]}